- name: Lisboa-Sta. Apolónia
  country: PT
  border_station: false
  main_station: true
  lat: 38.71362190000001
  lng: -9.123153000000002
- name: Lisboa-Oriente
  country: PT
  border_station: false
  main_station: true
  lat: 38.767802
  lng: -9.099136
- name: V.F. Xira
  country: PT
  border_station: false
  main_station: true
  lat: 38.9547
  lng: -8.986486000000014
- name: Santarém
  country: PT
  border_station: false
  main_station: true
  lat: 39.2421126
  lng: -8.67501440000001
- name: Entroncamento
  country: PT
  border_station: false
  main_station: true
  lat: 39.461597
  lng: -8.474179999999933
- name: Fátima
  country: PT
  border_station: false
  main_station: true
  lat: 39.653881
  lng: -8.49342189999993
- name: Caxarias
  country: PT
  border_station: false
  main_station: true
  lat: 39.7143513
  lng: -8.545144700000037
- name: Pombal
  country: PT
  border_station: false
  main_station: true
  lat: 39.9167501
  lng: -8.629983700000025
- name: Alfarelos
  country: PT
  border_station: false
  main_station: true
  lat: 40.164884
  lng: -8.634794899999974
- name: Coimbra B
  country: PT
  border_station: false
  main_station: true
  lat: 40.224364
  lng: -8.44046800000001
- name: Pampilhosa
  country: PT
  border_station: false
  main_station: true
  lat: 40.3376999
  lng: -8.430802800000038
- name: Mealhada
  country: PT
  border_station: false
  main_station: true
  lat: 40.3750748
  lng: -8.453812800000037
- name: Aveiro
  country: PT
  border_station: false
  main_station: true
  lat: 40.6434114
  lng: -8.640550399999938
- name: Estareja
  country: PT
  border_station: false
  main_station: true
  lat: 40.75122289999999
  lng: -8.575621400000045
- name: Ovar
  country: PT
  border_station: false
  main_station: true
  lat: 40.86445
  lng: -8.617055199999982
- name: Espinho
  country: PT
  border_station: false
  main_station: true
  lat: 41.006195
  lng: -8.644485000000032
- name: V.N. Gaia
  country: PT
  border_station: false
  main_station: true
  lat: 41.1296755
  lng: -8.620188399999961
- name: Porto-Campanhã
  country: PT
  border_station: false
  main_station: true
  lat: 41.14962200000001
  lng: -8.58551399999999